{
  "cities": [
    {
      "id": "144795",
      "name_fa": "آبيِكِ",
      "name_en": "آبيِكِ",
      "lat": 36.03993,
      "lon": 50.53101
    },
    {
      "id": "10570",
      "name_fa": "الوند",
      "name_en": "الوند",
      "lat": 36.1893,
      "lon": 50.0643
    },
    {
      "id": "113491",
      "name_fa": "تاكستان",
      "name_en": "تاكستان",
      "lat": 36.07057,
      "lon": 49.69571
    },
    {
      "id": "114106",
      "name_fa": "سلطان آباد اقبالیه",
      "name_en": "سلطان آباد اقبالیه",
      "lat": 36.23081,
      "lon": 49.92499
    },
    {
      "id": "115382",
      "name_fa": "شریف آباد",
      "name_en": "شریف آباد",
      "lat": 36.21167,
      "lon": 50.14999
    },
    {
      "id": "6659981",
      "name_fa": "شهرک محمدیه",
      "name_en": "شهرک محمدیه",
      "lat": 36.22374,
      "lon": 50.18247
    },
    {
      "id": "119505",
      "name_fa": "قزوین",
      "name_en": "قزوین",
      "lat": 36.26877,
      "lon": 50.0041
    },
    {
      "id": "14256",
      "name_fa": "آزادشهر",
      "name_en": "آزادشهر",
      "lat": 34.79049,
      "lon": 48.57011
    },
    {
      "id": "142872",
      "name_fa": "اسد آباد",
      "name_en": "اسد آباد",
      "lat": 34.78241,
      "lon": 48.12012
    },
    {
      "id": "142000",
      "name_fa": "بهار",
      "name_en": "بهار",
      "lat": 34.9072,
      "lon": 48.4414
    },
    {
      "id": "112422",
      "name_fa": "تُّيسِركَن",
      "name_en": "تُّيسِركَن",
      "lat": 34.551,
      "lon": 48.44353
    },
    {
      "id": "125185",
      "name_fa": "ملایر",
      "name_en": "ملایر",
      "lat": 34.30158,
      "lon": 48.82166
    },
    {
      "id": "122915",
      "name_fa": "نهاوند",
      "name_en": "نهاوند",
      "lat": 34.19088,
      "lon": 48.37446
    },
    {
      "id": "132144",
      "name_fa": "همدان",
      "name_en": "همدان",
      "lat": 34.79922,
      "lon": 48.51456
    },
    {
      "id": "142496",
      "name_fa": "ازنا",
      "name_en": "ازنا",
      "lat": 33.6095,
      "lon": 48.9307
    },
    {
      "id": "142497",
      "name_fa": "ازنا",
      "name_en": "ازنا",
      "lat": 33.45643,
      "lon": 49.45646
    },
    {
      "id": "144269",
      "name_fa": "الشتر",
      "name_en": "الشتر",
      "lat": 33.86419,
      "lon": 48.26258
    },
    {
      "id": "143921",
      "name_fa": "الیگودرز",
      "name_en": "الیگودرز",
      "lat": 33.404,
      "lon": 49.69179
    },
    {
      "id": "140044",
      "name_fa": "بروجرد",
      "name_en": "بروجرد",
      "lat": 33.8973,
      "lon": 48.7516
    },
    {
      "id": "127349",
      "name_fa": "خرم آباد",
      "name_en": "خرم آباد",
      "lat": 33.48778,
      "lon": 48.35583
    },
    {
      "id": "135878",
      "name_fa": "دورود",
      "name_en": "دورود",
      "lat": 33.49218,
      "lon": 49.0616
    },
    {
      "id": "24851",
      "name_fa": "نور آباد",
      "name_en": "نور آباد",
      "lat": 34.0734,
      "lon": 47.9725
    },
    {
      "id": "120949",
      "name_fa": "پل دختر",
      "name_en": "پل دختر",
      "lat": 33.15249,
      "lon": 47.71014
    },
    {
      "id": "126409",
      "name_fa": "کوهدشت",
      "name_en": "کوهدشت",
      "lat": 33.53335,
      "lon": 47.60999
    },
    {
      "id": "130245",
      "name_fa": "Javānrūd",
      "name_en": "Javānrūd",
      "lat": 34.79611,
      "lon": 46.51722
    },
    {
      "id": "128226",
      "name_fa": "استان کرمانشاه",
      "name_en": "استان کرمانشاه",
      "lat": 34.31417,
      "lon": 47.065
    },
    {
      "id": "135175",
      "name_fa": "اسلام آباد غرب",
      "name_en": "اسلام آباد غرب",
      "lat": 34.1089,
      "lon": 46.52988
    },
    {
      "id": "25883",
      "name_fa": "جوانرود",
      "name_en": "جوانرود",
      "lat": 34.8067,
      "lon": 46.4913
    },
    {
      "id": "118705",
      "name_fa": "روانسر",
      "name_en": "روانسر",
      "lat": 34.7153,
      "lon": 46.6533
    },
    {
      "id": "120931",
      "name_fa": "سر پل ذهاب",
      "name_en": "سر پل ذهاب",
      "lat": 34.46109,
      "lon": 45.86264
    },
    {
      "id": "114049",
      "name_fa": "سنقر",
      "name_en": "سنقر",
      "lat": 34.78187,
      "lon": 47.59945
    },
    {
      "id": "117835",
      "name_fa": "صحنه",
      "name_en": "صحنه",
      "lat": 34.4813,
      "lon": 47.6908
    },
    {
      "id": "131962",
      "name_fa": "هرسین",
      "name_en": "هرسین",
      "lat": 34.2721,
      "lon": 47.5861
    },
    {
      "id": "128831",
      "name_fa": "کنگاور",
      "name_en": "کنگاور",
      "lat": 34.5043,
      "lon": 47.9653
    },
    {
      "id": "138025",
      "name_fa": "دامغان",
      "name_en": "دامغان",
      "lat": 36.1679,
      "lon": 54.34292
    },
    {
      "id": "116402",
      "name_fa": "سمنان",
      "name_en": "سمنان",
      "lat": 35.57691,
      "lon": 53.39205
    },
    {
      "id": "7100777",
      "name_fa": "سنگسر",
      "name_en": "سنگسر",
      "lat": 35.71071,
      "lon": 53.35394
    },
    {
      "id": "135423",
      "name_fa": "شاهرود",
      "name_en": "شاهرود",
      "lat": 36.41819,
      "lon": 54.97628
    },
    {
      "id": "32723",
      "name_fa": "يستگاهِ راهاهَنِ گَرمسار",
      "name_en": "يستگاهِ راهاهَنِ گَرمسار",
      "lat": 35.23455,
      "lon": 52.30942
    },
    {
      "id": "13562246",
      "name_fa": "Bāghestān",
      "name_en": "Bāghestān",
      "lat": 35.64706,
      "lon": 51.13378
    },
    {
      "id": "13405749",
      "name_fa": "Nasimshahr",
      "name_en": "Nasimshahr",
      "lat": 35.56528,
      "lon": 51.1583
    },
    {
      "id": "449504",
      "name_fa": "اسلامشهر",
      "name_en": "اسلامشهر",
      "lat": 35.55222,
      "lon": 51.23504
    },
    {
      "id": "406993",
      "name_fa": "اقباليّه",
      "name_en": "اقباليّه",
      "lat": 35.3022,
      "lon": 51.5358
    },
    {
      "id": "10865375",
      "name_fa": "اندیشه",
      "name_en": "اندیشه",
      "lat": 35.74708,
      "lon": 51.27739
    },
    {
      "id": "6672634",
      "name_fa": "اکبر آباد",
      "name_en": "اکبر آباد",
      "lat": 35.56504,
      "lon": 51.16332
    },
    {
      "id": "400809",
      "name_fa": "باقِرابادِ باقِرُف",
      "name_en": "باقِرابادِ باقِرُف",
      "lat": 35.53164,
      "lon": 51.4048
    },
    {
      "id": "139879",
      "name_fa": "بومِ هِن",
      "name_en": "بومِ هِن",
      "lat": 35.72972,
      "lon": 51.86884
    },
    {
      "id": "113514",
      "name_fa": "تجريش",
      "name_en": "تجريش",
      "lat": 35.8044,
      "lon": 51.4256
    },
    {
      "id": "112931",
      "name_fa": "تهران",
      "name_en": "تهران",
      "lat": 35.69439,
      "lon": 51.42151
    },
    {
      "id": "138042",
      "name_fa": "دماوند",
      "name_en": "دماوند",
      "lat": 35.71842,
      "lon": 52.06958
    },
    {
      "id": "118367",
      "name_fa": "رباط كريم",
      "name_en": "رباط كريم",
      "lat": 35.4846,
      "lon": 51.0829
    },
    {
      "id": "118223",
      "name_fa": "رودهن",
      "name_en": "رودهن",
      "lat": 35.73338,
      "lon": 51.90587
    },
    {
      "id": "32909",
      "name_fa": "شهر جدید اندیشه",
      "name_en": "شهر جدید اندیشه",
      "lat": 35.6803,
      "lon": 51.0193
    },
    {
      "id": "6681051",
      "name_fa": "شهر جدید پردیس",
      "name_en": "شهر جدید پردیس",
      "lat": 35.74687,
      "lon": 51.81222
    },
    {
      "id": "6659672",
      "name_fa": "شهر جدید پرند",
      "name_en": "شهر جدید پرند",
      "lat": 35.47195,
      "lon": 50.97547
    },
    {
      "id": "120292",
      "name_fa": "شهرك قدس",
      "name_en": "شهرك قدس",
      "lat": 35.7214,
      "lon": 51.109
    },
    {
      "id": "32900",
      "name_fa": "شهرك گلستان",
      "name_en": "شهرك گلستان",
      "lat": 35.5183,
      "lon": 51.1819
    },
    {
      "id": "143860",
      "name_fa": "شهريار",
      "name_en": "شهريار",
      "lat": 35.65884,
      "lon": 51.05775
    },
    {
      "id": "32843",
      "name_fa": "شهرک صالح آباد",
      "name_en": "شهرک صالح آباد",
      "lat": 35.50527,
      "lon": 51.19142
    },
    {
      "id": "400833",
      "name_fa": "شهرک قيام دشت",
      "name_en": "شهرک قيام دشت",
      "lat": 35.5237,
      "lon": 51.6505
    },
    {
      "id": "8080737",
      "name_fa": "علائين",
      "name_en": "علائين",
      "lat": 35.58231,
      "lon": 51.45559
    },
    {
      "id": "406472",
      "name_fa": "عَليابادِ دِرازِه",
      "name_en": "عَليابادِ دِرازِه",
      "lat": 35.5729,
      "lon": 51.085
    },
    {
      "id": "33069",
      "name_fa": "فردوس",
      "name_en": "فردوس",
      "lat": 35.6011,
      "lon": 51.0645
    },
    {
      "id": "6657205",
      "name_fa": "فردیس",
      "name_en": "فردیس",
      "lat": 35.7555,
      "lon": 50.9967
    },
    {
      "id": "134598",
      "name_fa": "فرون آباد",
      "name_en": "فرون آباد",
      "lat": 35.5156,
      "lon": 51.6232
    },
    {
      "id": "6672633",
      "name_fa": "قاسم آباد",
      "name_en": "قاسم آباد",
      "lat": 35.58026,
      "lon": 51.11392
    },
    {
      "id": "32767",
      "name_fa": "قرچك",
      "name_en": "قرچك",
      "lat": 35.42873,
      "lon": 51.57757
    },
    {
      "id": "129664",
      "name_fa": "كَهريزَك",
      "name_en": "كَهريزَك",
      "lat": 35.3465,
      "lon": 51.84418
    },
    {
      "id": "124838",
      "name_fa": "ماهدشت",
      "name_en": "ماهدشت",
      "lat": 35.7282,
      "lon": 50.8134
    },
    {
      "id": "7465130",
      "name_fa": "مجتمع مسکونی نامجو",
      "name_en": "مجتمع مسکونی نامجو",
      "lat": 35.4723,
      "lon": 51.724
    },
    {
      "id": "125188",
      "name_fa": "ملارد",
      "name_en": "ملارد",
      "lat": 35.6659,
      "lon": 50.9767
    },
    {
      "id": "123205",
      "name_fa": "مِشگين آباد",
      "name_en": "مِشگين آباد",
      "lat": 35.74988,
      "lon": 50.94376
    },
    {
      "id": "406462",
      "name_fa": "نَصيرابادِ بَدِر",
      "name_en": "نَصيرابادِ بَدِر",
      "lat": 35.6102,
      "lon": 51.1611
    },
    {
      "id": "404592",
      "name_fa": "وحيديه",
      "name_en": "وحيديه",
      "lat": 35.71445,
      "lon": 51.47086
    },
    {
      "id": "112214",
      "name_fa": "ورامين",
      "name_en": "ورامين",
      "lat": 35.3242,
      "lon": 51.6457
    },
    {
      "id": "9478811",
      "name_fa": "پاکدشت",
      "name_en": "پاکدشت",
      "lat": 35.47854,
      "lon": 51.6834
    },
    {
      "id": "120972",
      "name_fa": "پيشوا",
      "name_en": "پيشوا",
      "lat": 35.308,
      "lon": 51.7267
    },
    {
      "id": "36618",
      "name_fa": "Dezfūl",
      "name_en": "Dezfūl",
      "lat": 32.41667,
      "lon": 48.21667
    },
    {
      "id": "145459",
      "name_fa": "Ābādān",
      "name_en": "Ābādān",
      "lat": 30.3392,
      "lon": 48.3043
    },
    {
      "id": "144696",
      "name_fa": "Āghājārī",
      "name_en": "Āghājārī",
      "lat": 30.7006,
      "lon": 49.8315
    },
    {
      "id": "130697",
      "name_fa": "Īz̄eh",
      "name_en": "Īz̄eh",
      "lat": 31.83027,
      "lon": 49.86756
    },
    {
      "id": "121861",
      "name_fa": "امیدیه",
      "name_en": "امیدیه",
      "lat": 30.76277,
      "lon": 49.70226
    },
    {
      "id": "143420",
      "name_fa": "اندیمشک",
      "name_en": "اندیمشک",
      "lat": 32.4615,
      "lon": 48.35368
    },
    {
      "id": "144448",
      "name_fa": "اهواز",
      "name_en": "اهواز",
      "lat": 31.31901,
      "lon": 48.6842
    },
    {
      "id": "142114",
      "name_fa": "باغ ملک",
      "name_en": "باغ ملک",
      "lat": 31.52398,
      "lon": 49.88558
    },
    {
      "id": "127319",
      "name_fa": "بندر خرمشهر",
      "name_en": "بندر خرمشهر",
      "lat": 30.44079,
      "lon": 48.18428
    },
    {
      "id": "141663",
      "name_fa": "بندر ماهشهر",
      "name_en": "بندر ماهشهر",
      "lat": 30.55655,
      "lon": 49.18852
    },
    {
      "id": "8521444",
      "name_fa": "بندرامام خمینی",
      "name_en": "بندرامام خمینی",
      "lat": 30.43698,
      "lon": 49.10288
    },
    {
      "id": "140951",
      "name_fa": "بهبهان",
      "name_en": "بهبهان",
      "lat": 30.5959,
      "lon": 50.2417
    },
    {
      "id": "132105",
      "name_fa": "حمیدیه",
      "name_en": "حمیدیه",
      "lat": 31.48285,
      "lon": 48.4332
    },
    {
      "id": "118826",
      "name_fa": "رامهرمز",
      "name_en": "رامهرمز",
      "lat": 31.27997,
      "lon": 49.60351
    },
    {
      "id": "137268",
      "name_fa": "سوسنگرد",
      "name_en": "سوسنگرد",
      "lat": 31.5635,
      "lon": 48.18958
    },
    {
      "id": "116102",
      "name_fa": "شادگان",
      "name_en": "شادگان",
      "lat": 30.64924,
      "lon": 48.66497
    },
    {
      "id": "6648117",
      "name_fa": "شهرک شهید چمران",
      "name_en": "شهرک شهید چمران",
      "lat": 30.70838,
      "lon": 49.16266
    },
    {
      "id": "45628",
      "name_fa": "شهرک طالقانی",
      "name_en": "شهرک طالقانی",
      "lat": 30.835,
      "lon": 50.19873
    },
    {
      "id": "114593",
      "name_fa": "شوش",
      "name_en": "شوش",
      "lat": 32.1942,
      "lon": 48.2436
    },
    {
      "id": "114584",
      "name_fa": "شوشتر",
      "name_en": "شوشتر",
      "lat": 32.04972,
      "lon": 48.84843
    },
    {
      "id": "6648621",
      "name_fa": "شیبان",
      "name_en": "شیبان",
      "lat": 31.40794,
      "lon": 48.7946
    },
    {
      "id": "124620",
      "name_fa": "مسجد سلیمان",
      "name_en": "مسجد سلیمان",
      "lat": 31.9364,
      "lon": 49.3039
    },
    {
      "id": "131559",
      "name_fa": "هندیجان",
      "name_en": "هندیجان",
      "lat": 30.2363,
      "lon": 49.7119
    },
    {
      "id": "126082",
      "name_fa": "کوت عبدالله",
      "name_en": "کوت عبدالله",
      "lat": 31.23917,
      "lon": 48.65639
    },
    {
      "id": "133884",
      "name_fa": "گتوند",
      "name_en": "گتوند",
      "lat": 32.24585,
      "lon": 48.81315
    },
    {
      "id": "145034",
      "name_fa": "ابهر",
      "name_en": "ابهر",
      "lat": 36.1468,
      "lon": 49.218
    },
    {
      "id": "143748",
      "name_fa": "الوند",
      "name_en": "الوند",
      "lat": 36.31885,
      "lon": 49.16773
    },
    {
      "id": "41210",
      "name_fa": "خرمدره",
      "name_en": "خرمدره",
      "lat": 36.20777,
      "lon": 49.19527
    },
    {
      "id": "111453",
      "name_fa": "زنجان",
      "name_en": "زنجان",
      "lat": 36.67642,
      "lon": 48.49628
    },
    {
      "id": "119369",
      "name_fa": "قيدَر",
      "name_en": "قيدَر",
      "lat": 36.11472,
      "lon": 48.59111
    },
    {
      "id": "135205",
      "name_fa": "اشتهارد",
      "name_en": "اشتهارد",
      "lat": 35.7255,
      "lon": 50.3662
    },
    {
      "id": "8535197",
      "name_fa": "شهر جدید مهستان",
      "name_en": "شهر جدید مهستان",
      "lat": 35.98907,
      "lon": 50.74512
    },
    {
      "id": "41548",
      "name_fa": "كَمال آباد",
      "name_en": "كَمال آباد",
      "lat": 35.86187,
      "lon": 50.87424
    },
    {
      "id": "400771",
      "name_fa": "محمد شهر",
      "name_en": "محمد شهر",
      "lat": 35.763,
      "lon": 50.9171
    },
    {
      "id": "122438",
      "name_fa": "نَظَراباد",
      "name_en": "نَظَراباد",
      "lat": 35.95411,
      "lon": 50.60607
    },
    {
      "id": "131691",
      "name_fa": "هشتگرد",
      "name_en": "هشتگرد",
      "lat": 35.962,
      "lon": 50.6799
    },
    {
      "id": "128747",
      "name_fa": "کرج",
      "name_en": "کرج",
      "lat": 35.83266,
      "lon": 50.99155
    },
    {
      "id": "400773",
      "name_fa": "گرمدره",
      "name_en": "گرمدره",
      "lat": 35.74803,
      "lon": 51.06865
    },
    {
      "id": "137956",
      "name_fa": "Dārāb",
      "name_en": "Dārāb",
      "lat": 28.75171,
      "lon": 54.54065
    },
    {
      "id": "134518",
      "name_fa": "Fīrūzābād",
      "name_en": "Fīrūzābād",
      "lat": 28.84459,
      "lon": 52.57151
    },
    {
      "id": "121925",
      "name_fa": "Nūrābād",
      "name_en": "Nūrābād",
      "lat": 30.11405,
      "lon": 51.52174
    },
    {
      "id": "401202",
      "name_fa": "Pāsārgād",
      "name_en": "Pāsārgād",
      "lat": 30.20194,
      "lon": 53.18
    },
    {
      "id": "48918",
      "name_fa": "آباده",
      "name_en": "آباده",
      "lat": 28.8349,
      "lon": 53.1726
    },
    {
      "id": "145449",
      "name_fa": "آباده",
      "name_en": "آباده",
      "lat": 31.1608,
      "lon": 52.6506
    },
    {
      "id": "135094",
      "name_fa": "استهبان",
      "name_en": "استهبان",
      "lat": 29.1266,
      "lon": 54.0421
    },
    {
      "id": "130531",
      "name_fa": "جهرم",
      "name_en": "جهرم",
      "lat": 28.5,
      "lon": 53.5605
    },
    {
      "id": "113723",
      "name_fa": "سوریان",
      "name_en": "سوریان",
      "lat": 30.4551,
      "lon": 53.651
    },
    {
      "id": "115019",
      "name_fa": "شیراز",
      "name_en": "شیراز",
      "lat": 29.61031,
      "lon": 52.53113
    },
    {
      "id": "134781",
      "name_fa": "فراشبند",
      "name_en": "فراشبند",
      "lat": 28.86012,
      "lon": 52.09452
    },
    {
      "id": "134721",
      "name_fa": "فسا",
      "name_en": "فسا",
      "lat": 28.9383,
      "lon": 53.6482
    },
    {
      "id": "119264",
      "name_fa": "قیر",
      "name_en": "قیر",
      "lat": 28.4825,
      "lon": 53.0346
    },
    {
      "id": "128321",
      "name_fa": "كازرون",
      "name_en": "كازرون",
      "lat": 29.61919,
      "lon": 51.6535
    },
    {
      "id": "125877",
      "name_fa": "لار",
      "name_en": "لار",
      "lat": 27.68336,
      "lon": 54.34172
    },
    {
      "id": "125926",
      "name_fa": "لامرد",
      "name_en": "لامرد",
      "lat": 27.334,
      "lon": 53.179
    },
    {
      "id": "124721",
      "name_fa": "مرودشت",
      "name_en": "مرودشت",
      "lat": 29.87407,
      "lon": 52.80258
    },
    {
      "id": "122289",
      "name_fa": "نیریز",
      "name_en": "نیریز",
      "lat": 29.1988,
      "lon": 54.3278
    },
    {
      "id": "44439",
      "name_fa": "کوار",
      "name_en": "کوار",
      "lat": 29.20505,
      "lon": 52.69043
    },
    {
      "id": "133595",
      "name_fa": "گراش",
      "name_en": "گراش",
      "lat": 27.66966,
      "lon": 54.13586
    },
    {
      "id": "136014",
      "name_fa": "دُو گُنبَدان",
      "name_en": "دُو گُنبَدان",
      "lat": 30.3586,
      "lon": 50.7981
    },
    {
      "id": "136987",
      "name_fa": "دِهدَست",
      "name_en": "دِهدَست",
      "lat": 30.79337,
      "lon": 50.56508
    },
    {
      "id": "66093",
      "name_fa": "ياسوج",
      "name_en": "ياسوج",
      "lat": 30.66824,
      "lon": 51.58796
    },
    {
      "id": "7329809",
      "name_fa": "آق قلا",
      "name_en": "آق قلا",
      "lat": 37.0139,
      "lon": 54.45504
    },
    {
      "id": "132892",
      "name_fa": "اَستِر آباد",
      "name_en": "اَستِر آباد",
      "lat": 36.8427,
      "lon": 54.44391
    },
    {
      "id": "141673",
      "name_fa": "بندر گز",
      "name_en": "بندر گز",
      "lat": 36.77409,
      "lon": 53.94798
    },
    {
      "id": "141653",
      "name_fa": "بَندَرِ تُركمَن",
      "name_en": "بَندَرِ تُركمَن",
      "lat": 36.90124,
      "lon": 54.07195
    },
    {
      "id": "110831",
      "name_fa": "شاه پسند",
      "name_en": "شاه پسند",
      "lat": 37.08641,
      "lon": 55.17222
    },
    {
      "id": "126572",
      "name_fa": "كردكوی",
      "name_en": "كردكوی",
      "lat": 36.79307,
      "lon": 54.11214
    },
    {
      "id": "129512",
      "name_fa": "كلاله",
      "name_en": "كلاله",
      "lat": 37.37899,
      "lon": 55.493
    },
    {
      "id": "123927",
      "name_fa": "مينودشت",
      "name_en": "مينودشت",
      "lat": 37.23015,
      "lon": 55.37211
    },
    {
      "id": "134282",
      "name_fa": "گاليكش",
      "name_en": "گاليكش",
      "lat": 37.27259,
      "lon": 55.43394
    },
    {
      "id": "132938",
      "name_fa": "گنبد کاووس",
      "name_en": "گنبد کاووس",
      "lat": 37.25004,
      "lon": 55.16721
    },
    {
      "id": "114259",
      "name_fa": "Sa‘īdābād",
      "name_en": "Sa‘īdābād",
      "lat": 29.45137,
      "lon": 55.6809
    },
    {
      "id": "142247",
      "name_fa": "بافت",
      "name_en": "بافت",
      "lat": 29.2331,
      "lon": 56.6022
    },
    {
      "id": "124647",
      "name_fa": "بردسیر",
      "name_en": "بردسیر",
      "lat": 29.92266,
      "lon": 56.57433
    },
    {
      "id": "141407",
      "name_fa": "بروات",
      "name_en": "بروات",
      "lat": 29.0663,
      "lon": 58.4046
    },
    {
      "id": "141736",
      "name_fa": "بم",
      "name_en": "بم",
      "lat": 29.106,
      "lon": 58.357
    },
    {
      "id": "6925362",
      "name_fa": "جیرفت",
      "name_en": "جیرفت",
      "lat": 28.67806,
      "lon": 57.74056
    },
    {
      "id": "118704",
      "name_fa": "راور",
      "name_en": "راور",
      "lat": 31.26562,
      "lon": 56.80545
    },
    {
      "id": "118994",
      "name_fa": "رفسنجان",
      "name_en": "رفسنجان",
      "lat": 30.4067,
      "lon": 55.9939
    },
    {
      "id": "111421",
      "name_fa": "زرند",
      "name_en": "زرند",
      "lat": 30.81271,
      "lon": 56.56399
    },
    {
      "id": "115781",
      "name_fa": "شهر بابک",
      "name_en": "شهر بابک",
      "lat": 30.1165,
      "lon": 55.1186
    },
    {
      "id": "128234",
      "name_fa": "کرمان",
      "name_en": "کرمان",
      "lat": 30.28321,
      "lon": 57.07879
    },
    {
      "id": "143073",
      "name_fa": "اردکان",
      "name_en": "اردکان",
      "lat": 32.31001,
      "lon": 54.01747
    },
    {
      "id": "142255",
      "name_fa": "بافق",
      "name_en": "بافق",
      "lat": 31.6035,
      "lon": 55.40249
    },
    {
      "id": "113659",
      "name_fa": "طبس",
      "name_en": "طبس",
      "lat": 33.59586,
      "lon": 56.92437
    },
    {
      "id": "124193",
      "name_fa": "ميبد",
      "name_en": "ميبد",
      "lat": 32.25014,
      "lon": 54.01658
    },
    {
      "id": "124274",
      "name_fa": "مِهريز",
      "name_en": "مِهريز",
      "lat": 31.58428,
      "lon": 54.4428
    },
    {
      "id": "111822",
      "name_fa": "یزد",
      "name_en": "یزد",
      "lat": 31.89722,
      "lon": 54.3675
    },
    {
      "id": "141349",
      "name_fa": "بردسکن",
      "name_en": "بردسکن",
      "lat": 35.26218,
      "lon": 57.97075
    },
    {
      "id": "1159384",
      "name_fa": "تايباد",
      "name_en": "تايباد",
      "lat": 34.74,
      "lon": 60.7756
    },
    {
      "id": "1159362",
      "name_fa": "تربت جام",
      "name_en": "تربت جام",
      "lat": 35.244,
      "lon": 60.6225
    },
    {
      "id": "112646",
      "name_fa": "تربت حیدریه",
      "name_en": "تربت حیدریه",
      "lat": 35.27401,
      "lon": 59.21949
    },
    {
      "id": "1160544",
      "name_fa": "خواف",
      "name_en": "خواف",
      "lat": 34.5763,
      "lon": 60.14093
    },
    {
      "id": "7082152",
      "name_fa": "سایبان گلی",
      "name_en": "سایبان گلی",
      "lat": 36.56976,
      "lon": 59.1904
    },
    {
      "id": "118063",
      "name_fa": "سبزوار",
      "name_en": "سبزوار",
      "lat": 36.2126,
      "lon": 57.68191
    },
    {
      "id": "1159716",
      "name_fa": "سرخس",
      "name_en": "سرخس",
      "lat": 36.5449,
      "lon": 61.1577
    },
    {
      "id": "119115",
      "name_fa": "قوچان",
      "name_en": "قوچان",
      "lat": 37.106,
      "lon": 58.50955
    },
    {
      "id": "124878",
      "name_fa": "مراغه",
      "name_en": "مراغه",
      "lat": 35.82916,
      "lon": 59.63324
    },
    {
      "id": "124665",
      "name_fa": "مشهد",
      "name_en": "مشهد",
      "lat": 36.29807,
      "lon": 59.60567
    },
    {
      "id": "122285",
      "name_fa": "نیشابور",
      "name_en": "نیشابور",
      "lat": 36.21329,
      "lon": 58.79575
    },
    {
      "id": "138742",
      "name_fa": "چناران",
      "name_en": "چناران",
      "lat": 36.64546,
      "lon": 59.12123
    },
    {
      "id": "128447",
      "name_fa": "کاشمر",
      "name_en": "کاشمر",
      "lat": 35.23831,
      "lon": 58.46558
    },
    {
      "id": "132961",
      "name_fa": "گناباد",
      "name_en": "گناباد",
      "lat": 34.35287,
      "lon": 58.68365
    },
    {
      "id": "143534",
      "name_fa": "آمل",
      "name_en": "آمل",
      "lat": 36.46961,
      "lon": 52.35072
    },
    {
      "id": "143561",
      "name_fa": "امير كلا",
      "name_en": "امير كلا",
      "lat": 36.59673,
      "lon": 52.6658
    },
    {
      "id": "140918",
      "name_fa": "اَشرَف",
      "name_en": "اَشرَف",
      "lat": 36.69235,
      "lon": 53.55262
    },
    {
      "id": "142363",
      "name_fa": "بابل",
      "name_en": "بابل",
      "lat": 36.55102,
      "lon": 52.6786
    },
    {
      "id": "142358",
      "name_fa": "بابلسر",
      "name_en": "بابلسر",
      "lat": 36.69929,
      "lon": 52.65011
    },
    {
      "id": "112656",
      "name_fa": "تنکابن",
      "name_en": "تنکابن",
      "lat": 36.81626,
      "lon": 50.87376
    },
    {
      "id": "129933",
      "name_fa": "جويبار",
      "name_en": "جويبار",
      "lat": 36.64088,
      "lon": 52.91206
    },
    {
      "id": "117773",
      "name_fa": "رامسر",
      "name_en": "رامسر",
      "lat": 36.91796,
      "lon": 50.64802
    },
    {
      "id": "118024",
      "name_fa": "سادات محله",
      "name_en": "سادات محله",
      "lat": 36.88879,
      "lon": 50.6964
    },
    {
      "id": "116996",
      "name_fa": "ساری",
      "name_en": "ساری",
      "lat": 36.56332,
      "lon": 53.06009
    },
    {
      "id": "134602",
      "name_fa": "فريدونكنار",
      "name_en": "فريدونكنار",
      "lat": 36.68489,
      "lon": 52.51917
    },
    {
      "id": "120695",
      "name_fa": "قائم شهر",
      "name_en": "قائم شهر",
      "lat": 36.46306,
      "lon": 52.86007
    },
    {
      "id": "125328",
      "name_fa": "محمود آباد",
      "name_en": "محمود آباد",
      "lat": 36.63191,
      "lon": 52.26286
    },
    {
      "id": "122397",
      "name_fa": "نكا",
      "name_en": "نكا",
      "lat": 36.65079,
      "lon": 53.29905
    },
    {
      "id": "113797",
      "name_fa": "نور",
      "name_en": "نور",
      "lat": 36.57168,
      "lon": 52.0153
    },
    {
      "id": "121959",
      "name_fa": "نوشهر",
      "name_en": "نوشهر",
      "lat": 36.64852,
      "lon": 51.49621
    },
    {
      "id": "139223",
      "name_fa": "چالوس",
      "name_en": "چالوس",
      "lat": 36.655,
      "lon": 51.4204
    },
    {
      "id": "134255",
      "name_fa": "گلوگاه",
      "name_en": "گلوگاه",
      "lat": 36.72734,
      "lon": 53.80888
    },
    {
      "id": "134256",
      "name_fa": "گلوگاه",
      "name_en": "گلوگاه",
      "lat": 36.31048,
      "lon": 52.62621
    },
    {
      "id": "126015",
      "name_fa": "Lāhījān",
      "name_en": "Lāhījān",
      "lat": 37.20416,
      "lon": 50.00919
    },
    {
      "id": "142676",
      "name_fa": "Āstārā",
      "name_en": "Āstārā",
      "lat": 38.43084,
      "lon": 48.86994
    },
    {
      "id": "142679",
      "name_fa": "آستانه اشرفیه",
      "name_en": "آستانه اشرفیه",
      "lat": 37.26318,
      "lon": 49.94325
    },
    {
      "id": "141679",
      "name_fa": "بندر انزلی",
      "name_en": "بندر انزلی",
      "lat": 37.47318,
      "lon": 49.45785
    },
    {
      "id": "127415",
      "name_fa": "خمام",
      "name_en": "خمام",
      "lat": 37.39016,
      "lon": 49.65846
    },
    {
      "id": "118743",
      "name_fa": "رشت",
      "name_en": "رشت",
      "lat": 37.27611,
      "lon": 49.58862
    },
    {
      "id": "118191",
      "name_fa": "رودسر",
      "name_en": "رودسر",
      "lat": 37.13696,
      "lon": 50.29174
    },
    {
      "id": "113860",
      "name_fa": "صومعه سرا",
      "name_en": "صومعه سرا",
      "lat": 37.30134,
      "lon": 49.31504
    },
    {
      "id": "134441",
      "name_fa": "فومن",
      "name_en": "فومن",
      "lat": 37.224,
      "lon": 49.3125
    },
    {
      "id": "125897",
      "name_fa": "لنگرود",
      "name_en": "لنگرود",
      "lat": 37.19548,
      "lon": 50.15263
    },
    {
      "id": "113343",
      "name_fa": "هشتپر",
      "name_en": "هشتپر",
      "lat": 37.79658,
      "lon": 48.90521
    },
    {
      "id": "139889",
      "name_fa": "Būkān",
      "name_en": "Būkān",
      "lat": 36.521,
      "lon": 46.2089
    },
    {
      "id": "121795",
      "name_fa": "اشنويه",
      "name_en": "اشنويه",
      "lat": 37.0397,
      "lon": 45.0983
    },
    {
      "id": "113508",
      "name_fa": "تکاب",
      "name_en": "تکاب",
      "lat": 36.4009,
      "lon": 47.1133
    },
    {
      "id": "126972",
      "name_fa": "خوی",
      "name_en": "خوی",
      "lat": 38.5503,
      "lon": 44.9521
    },
    {
      "id": "117111",
      "name_fa": "سردشت",
      "name_en": "سردشت",
      "lat": 36.1552,
      "lon": 45.4788
    },
    {
      "id": "117656",
      "name_fa": "سلماس",
      "name_en": "سلماس",
      "lat": 38.1973,
      "lon": 44.7653
    },
    {
      "id": "117793",
      "name_fa": "شاهین دژ",
      "name_en": "شاهین دژ",
      "lat": 36.6793,
      "lon": 46.5669
    },
    {
      "id": "121801",
      "name_fa": "شهرستان ارومیه",
      "name_en": "شهرستان ارومیه",
      "lat": 37.55274,
      "lon": 45.07605
    },
    {
      "id": "401118",
      "name_fa": "شُط",
      "name_en": "شُط",
      "lat": 39.2192,
      "lon": 44.77
    },
    {
      "id": "119730",
      "name_fa": "قره ضیاء الدین",
      "name_en": "قره ضیاء الدین",
      "lat": 38.8915,
      "lon": 45.0255
    },
    {
      "id": "125446",
      "name_fa": "مهاباد",
      "name_en": "مهاباد",
      "lat": 36.7631,
      "lon": 45.7222
    },
    {
      "id": "124085",
      "name_fa": "میاندوآب",
      "name_en": "میاندوآب",
      "lat": 36.96667,
      "lon": 46.10961
    },
    {
      "id": "122698",
      "name_fa": "نقده",
      "name_en": "نقده",
      "lat": 36.9553,
      "lon": 45.388
    },
    {
      "id": "120954",
      "name_fa": "پلدشت",
      "name_en": "پلدشت",
      "lat": 39.348,
      "lon": 45.071
    },
    {
      "id": "121110",
      "name_fa": "پیرانشهر",
      "name_en": "پیرانشهر",
      "lat": 36.701,
      "lon": 45.1413
    },
    {
      "id": "13631338",
      "name_fa": "Sahand",
      "name_en": "Sahand",
      "lat": 37.95104,
      "lon": 46.1103
    },
    {
      "id": "144616",
      "name_fa": "اهر",
      "name_en": "اهر",
      "lat": 38.4774,
      "lon": 47.0699
    },
    {
      "id": "144443",
      "name_fa": "اَجَبشَهر",
      "name_en": "اَجَبشَهر",
      "lat": 37.4776,
      "lon": 45.8943
    },
    {
      "id": "140889",
      "name_fa": "بناب",
      "name_en": "بناب",
      "lat": 37.3404,
      "lon": 46.0561
    },
    {
      "id": "113646",
      "name_fa": "تبریز",
      "name_en": "تبریز",
      "lat": 38.08,
      "lon": 46.2919
    },
    {
      "id": "127219",
      "name_fa": "خسرو شهر",
      "name_en": "خسرو شهر",
      "lat": 37.9497,
      "lon": 46.0528
    },
    {
      "id": "117368",
      "name_fa": "سراب",
      "name_en": "سراب",
      "lat": 37.9408,
      "lon": 47.5367
    },
    {
      "id": "117096",
      "name_fa": "سردرود",
      "name_en": "سردرود",
      "lat": 38.02613,
      "lon": 46.14763
    },
    {
      "id": "116126",
      "name_fa": "شبستر",
      "name_en": "شبستر",
      "lat": 38.1804,
      "lon": 45.7028
    },
    {
      "id": "124877",
      "name_fa": "مراغه",
      "name_en": "مراغه",
      "lat": 37.39206,
      "lon": 46.23909
    },
    {
      "id": "124862",
      "name_fa": "مرند",
      "name_en": "مرند",
      "lat": 38.4329,
      "lon": 45.7749
    },
    {
      "id": "125112",
      "name_fa": "مَلِك كَندی",
      "name_en": "مَلِك كَندی",
      "lat": 37.14258,
      "lon": 46.10345
    },
    {
      "id": "124082",
      "name_fa": "میانه",
      "name_en": "میانه",
      "lat": 37.421,
      "lon": 47.715
    },
    {
      "id": "135298",
      "name_fa": "اسفراین",
      "name_en": "اسفراین",
      "lat": 37.07645,
      "lon": 57.51009
    },
    {
      "id": "140380",
      "name_fa": "بجنورد",
      "name_en": "بجنورد",
      "lat": 37.47473,
      "lon": 57.32903
    },
    {
      "id": "114930",
      "name_fa": "شیروان",
      "name_en": "شیروان",
      "lat": 37.39669,
      "lon": 57.92952
    },
    {
      "id": "140046",
      "name_fa": "اَمروجان",
      "name_en": "اَمروجان",
      "lat": 31.96523,
      "lon": 51.2873
    },
    {
      "id": "115770",
      "name_fa": "شهر كرد",
      "name_en": "شهر كرد",
      "lat": 32.32612,
      "lon": 50.8572
    },
    {
      "id": "134762",
      "name_fa": "فارسان",
      "name_en": "فارسان",
      "lat": 32.25694,
      "lon": 50.56095
    },
    {
      "id": "120678",
      "name_fa": "فرّخ شهر",
      "name_en": "فرّخ شهر",
      "lat": 32.27174,
      "lon": 50.98008
    },
    {
      "id": "125609",
      "name_fa": "لُرد جَن",
      "name_en": "لُرد جَن",
      "lat": 31.51338,
      "lon": 50.82672
    },
    {
      "id": "132458",
      "name_fa": "هفشجان",
      "name_en": "هفشجان",
      "lat": 32.22662,
      "lon": 50.79314
    },
    {
      "id": "418896",
      "name_fa": "Dorcheh Pīāz",
      "name_en": "Dorcheh Pīāz",
      "lat": 32.61528,
      "lon": 51.55556
    },
    {
      "id": "137929",
      "name_fa": "Dārān",
      "name_en": "Dārān",
      "lat": 32.98741,
      "lon": 50.4108
    },
    {
      "id": "122869",
      "name_fa": "Nā’īn",
      "name_en": "Nā’īn",
      "lat": 32.86006,
      "lon": 53.08749
    },
    {
      "id": "143122",
      "name_fa": "آران",
      "name_en": "آران",
      "lat": 34.05751,
      "lon": 51.48291
    },
    {
      "id": "418863",
      "name_fa": "اصفهان",
      "name_en": "اصفهان",
      "lat": 32.65246,
      "lon": 51.67462
    },
    {
      "id": "418950",
      "name_fa": "باغ ابریشم",
      "name_en": "باغ ابریشم",
      "lat": 32.55613,
      "lon": 51.57325
    },
    {
      "id": "418943",
      "name_fa": "بهارستان",
      "name_en": "بهارستان",
      "lat": 32.48814,
      "lon": 51.77312
    },
    {
      "id": "418446",
      "name_fa": "تیران",
      "name_en": "تیران",
      "lat": 32.70328,
      "lon": 51.15381
    },
    {
      "id": "418710",
      "name_fa": "خمینی شهر",
      "name_en": "خمینی شهر",
      "lat": 32.6856,
      "lon": 51.53609
    },
    {
      "id": "127033",
      "name_fa": "خوانسار",
      "name_en": "خوانسار",
      "lat": 33.22052,
      "lon": 50.31497
    },
    {
      "id": "418699",
      "name_fa": "خورزوق",
      "name_en": "خورزوق",
      "lat": 32.778,
      "lon": 51.64685
    },
    {
      "id": "418868",
      "name_fa": "دولت آباد",
      "name_en": "دولت آباد",
      "lat": 32.79978,
      "lon": 51.69553
    },
    {
      "id": "418521",
      "name_fa": "رهنان",
      "name_en": "رهنان",
      "lat": 32.68325,
      "lon": 51.60158
    },
    {
      "id": "418418",
      "name_fa": "زرّین شهر",
      "name_en": "زرّین شهر",
      "lat": 32.39057,
      "lon": 51.37654
    },
    {
      "id": "116406",
      "name_fa": "سمیرم",
      "name_en": "سمیرم",
      "lat": 31.41667,
      "lon": 51.56667
    },
    {
      "id": "417472",
      "name_fa": "شاهین شهر",
      "name_en": "شاهین شهر",
      "lat": 32.85788,
      "lon": 51.5529
    },
    {
      "id": "418533",
      "name_fa": "شهرضا",
      "name_en": "شهرضا",
      "lat": 32.00877,
      "lon": 51.86407
    },
    {
      "id": "418838",
      "name_fa": "فولاد شهر",
      "name_en": "فولاد شهر",
      "lat": 32.48664,
      "lon": 51.39673
    },
    {
      "id": "418571",
      "name_fa": "قهدریجان",
      "name_en": "قهدریجان",
      "lat": 32.5773,
      "lon": 51.45367
    },
    {
      "id": "418625",
      "name_fa": "مبارکه",
      "name_en": "مبارکه",
      "lat": 32.34612,
      "lon": 51.50205
    },
    {
      "id": "418851",
      "name_fa": "ملاورجان",
      "name_en": "ملاورجان",
      "lat": 32.5553,
      "lon": 51.50973
    },
    {
      "id": "418606",
      "name_fa": "نجف آباد",
      "name_en": "نجف آباد",
      "lat": 32.63464,
      "lon": 51.36525
    },
    {
      "id": "122491",
      "name_fa": "نطنز",
      "name_en": "نطنز",
      "lat": 33.51118,
      "lon": 51.91808
    },
    {
      "id": "418723",
      "name_fa": "کلیشاد",
      "name_en": "کلیشاد",
      "lat": 32.55118,
      "lon": 51.52758
    },
    {
      "id": "418830",
      "name_fa": "گز",
      "name_en": "گز",
      "lat": 32.80482,
      "lon": 51.62087
    },
    {
      "id": "418556",
      "name_fa": "گلدشت",
      "name_en": "گلدشت",
      "lat": 32.62837,
      "lon": 51.43926
    },
    {
      "id": "133037",
      "name_fa": "گلپایگان",
      "name_en": "گلپایگان",
      "lat": 33.4537,
      "lon": 50.28836
    },
    {
      "id": "144794",
      "name_fa": "آبيِك",
      "name_en": "آبيِك",
      "lat": 36.06667,
      "lon": 50.55
    },
    {
      "id": "127403",
      "name_fa": "خمين",
      "name_en": "خمين",
      "lat": 33.63889,
      "lon": 50.08003
    },
    {
      "id": "136399",
      "name_fa": "دليجان",
      "name_en": "دليجان",
      "lat": 33.9905,
      "lon": 50.6838
    },
    {
      "id": "116667",
      "name_fa": "ساوه",
      "name_en": "ساوه",
      "lat": 35.0213,
      "lon": 50.3566
    },
    {
      "id": "143127",
      "name_fa": "ساوه",
      "name_en": "ساوه",
      "lat": 34.09493,
      "lon": 49.69809
    },
    {
      "id": "142567",
      "name_fa": "شازند",
      "name_en": "شازند",
      "lat": 33.93132,
      "lon": 49.40629
    },
    {
      "id": "6657461",
      "name_fa": "مامونیه",
      "name_en": "مامونیه",
      "lat": 35.30454,
      "lon": 50.49934
    },
    {
      "id": "6746932",
      "name_fa": "محدوده شهر جدید مهاجران",
      "name_en": "محدوده شهر جدید مهاجران",
      "lat": 34.05042,
      "lon": 49.43498
    },
    {
      "id": "125438",
      "name_fa": "محلات",
      "name_en": "محلات",
      "lat": 33.91108,
      "lon": 50.45317
    },
    {
      "id": "128748",
      "name_fa": "کرهرود",
      "name_en": "کرهرود",
      "lat": 34.06095,
      "lon": 49.64462
    },
    {
      "id": "140521",
      "name_fa": "بيجار",
      "name_en": "بيجار",
      "lat": 35.8668,
      "lon": 47.60506
    },
    {
      "id": "141584",
      "name_fa": "بَنِ",
      "name_en": "بَنِ",
      "lat": 35.9975,
      "lon": 45.8853
    },
    {
      "id": "136156",
      "name_fa": "ديواندره",
      "name_en": "ديواندره",
      "lat": 35.9139,
      "lon": 47.0239
    },
    {
      "id": "117392",
      "name_fa": "سقز",
      "name_en": "سقز",
      "lat": 36.24992,
      "lon": 46.2735
    },
    {
      "id": "117574",
      "name_fa": "سِنَّ",
      "name_en": "سِنَّ",
      "lat": 35.31495,
      "lon": 46.99883
    },
    {
      "id": "119161",
      "name_fa": "قروه",
      "name_en": "قروه",
      "lat": 35.1664,
      "lon": 47.80564
    },
    {
      "id": "124778",
      "name_fa": "قَلعِۀ مَريوان",
      "name_en": "قَلعِۀ مَريوان",
      "lat": 35.51829,
      "lon": 46.18298
    },
    {
      "id": "128905",
      "name_fa": "کامیاران",
      "name_en": "کامیاران",
      "lat": 34.79535,
      "lon": 46.93682
    },
    {
      "id": "119208",
      "name_fa": "قم",
      "name_en": "قم",
      "lat": 34.6401,
      "lon": 50.8764
    },
    {
      "id": "141681",
      "name_fa": "بندر عباس",
      "name_en": "بندر عباس",
      "lat": 27.1865,
      "lon": 56.2808
    },
    {
      "id": "141665",
      "name_fa": "بندر لنگه",
      "name_en": "بندر لنگه",
      "lat": 26.55792,
      "lon": 54.88067
    },
    {
      "id": "132382",
      "name_fa": "حاجی آباد",
      "name_en": "حاجی آباد",
      "lat": 28.3091,
      "lon": 55.9017
    },
    {
      "id": "119374",
      "name_fa": "قشم",
      "name_en": "قشم",
      "lat": 26.9492,
      "lon": 56.2691
    },
    {
      "id": "126914",
      "name_fa": "كيش",
      "name_en": "كيش",
      "lat": 26.55778,
      "lon": 54.01944
    },
    {
      "id": "123941",
      "name_fa": "ميناب",
      "name_en": "ميناب",
      "lat": 27.13104,
      "lon": 57.08716
    },
    {
      "id": "120694",
      "name_fa": "Qā’en",
      "name_en": "Qā’en",
      "lat": 33.72654,
      "lon": 59.18439
    },
    {
      "id": "140463",
      "name_fa": "بیرجند",
      "name_en": "بیرجند",
      "lat": 32.86628,
      "lon": 59.22114
    },
    {
      "id": "143083",
      "name_fa": "اردبیل",
      "name_en": "اردبیل",
      "lat": 38.2498,
      "lon": 48.2933
    },
    {
      "id": "128008",
      "name_fa": "خلخال",
      "name_en": "خلخال",
      "lat": 37.61837,
      "lon": 48.52928
    },
    {
      "id": "124210",
      "name_fa": "مشگين شهر",
      "name_en": "مشگين شهر",
      "lat": 38.399,
      "lon": 47.682
    },
    {
      "id": "121380",
      "name_fa": "پارس آباد",
      "name_en": "پارس آباد",
      "lat": 39.6482,
      "lon": 47.9174
    },
    {
      "id": "133972",
      "name_fa": "گرمی",
      "name_en": "گرمی",
      "lat": 39.0215,
      "lon": 48.0801
    },
    {
      "id": "141676",
      "name_fa": "بندر ديلم",
      "name_en": "بندر ديلم",
      "lat": 30.0542,
      "lon": 50.159
    },
    {
      "id": "134217",
      "name_fa": "بندر گناوه",
      "name_en": "بندر گناوه",
      "lat": 29.5791,
      "lon": 50.517
    },
    {
      "id": "128847",
      "name_fa": "بندرِ كنگان",
      "name_en": "بندرِ كنگان",
      "lat": 27.83434,
      "lon": 52.06306
    },
    {
      "id": "139817",
      "name_fa": "بوشِهر",
      "name_en": "بوشِهر",
      "lat": 28.96887,
      "lon": 50.83657
    },
    {
      "id": "140097",
      "name_fa": "بُرَزدجَن",
      "name_en": "بُرَزدجَن",
      "lat": 29.2699,
      "lon": 51.2188
    },
    {
      "id": "130451",
      "name_fa": "جم",
      "name_en": "جم",
      "lat": 27.82977,
      "lon": 52.32518
    },
    {
      "id": "125206",
      "name_fa": "مكو",
      "name_en": "مكو",
      "lat": 27.8486,
      "lon": 52.423
    },
    {
      "id": "130802",
      "name_fa": "ایلام",
      "name_en": "ایلام",
      "lat": 33.6374,
      "lon": 46.4227
    },
    {
      "id": "137436",
      "name_fa": "دره شهر",
      "name_en": "دره شهر",
      "lat": 33.14447,
      "lon": 47.3799
    },
    {
      "id": "136702",
      "name_fa": "دهلران",
      "name_en": "دهلران",
      "lat": 32.6941,
      "lon": 47.2679
    },
    {
      "id": "145233",
      "name_fa": "قَلعِۀ آب دانان",
      "name_en": "قَلعِۀ آب دانان",
      "lat": 32.9926,
      "lon": 47.4198
    },
    {
      "id": "1159877",
      "name_fa": "Qaşr-e Qand",
      "name_en": "Qaşr-e Qand",
      "lat": 26.24833,
      "lon": 60.7525
    },
    {
      "id": "1160939",
      "name_fa": "ايرانشهر",
      "name_en": "ايرانشهر",
      "lat": 27.20245,
      "lon": 60.68476
    },
    {
      "id": "1160571",
      "name_fa": "خاش",
      "name_en": "خاش",
      "lat": 28.22107,
      "lon": 61.21582
    },
    {
      "id": "1113217",
      "name_fa": "زابل",
      "name_en": "زابل",
      "lat": 31.0306,
      "lon": 61.4949
    },
    {
      "id": "1159301",
      "name_fa": "زاهدان",
      "name_en": "زاهدان",
      "lat": 29.4963,
      "lon": 60.8629
    },
    {
      "id": "1159713",
      "name_fa": "سراوان",
      "name_en": "سراوان",
      "lat": 27.37089,
      "lon": 62.33096
    },
    {
      "id": "1161724",
      "name_fa": "چاه بهار",
      "name_en": "چاه بهار",
      "lat": 25.2919,
      "lon": 60.643
    },
    {
      "id": "1160500",
      "name_fa": "کنارک",
      "name_en": "کنارک",
      "lat": 25.3604,
      "lon": 60.3995
    }
  ]
}