{
  "تهران": [
    {"id":101,"name_fa":"تهران","lat":35.6892,"lon":51.3890},
    {"id":131,"name_fa":"اسلامشهر","lat":35.5150,"lon":51.2300},
    {"id":132,"name_fa":"ملارد","lat":35.6659,"lon":50.9760},
    {"id":133,"name_fa":"ورامین","lat":35.3252,"lon":51.6461},
    {"id":134,"name_fa":"پاکدشت","lat":35.4811,"lon":51.6866},
    {"id":135,"name_fa":"شهریار","lat":35.6590,"lon":51.0593},
    {"id":136,"name_fa":"قدس","lat":35.7200,"lon":51.1130},
    {"id":137,"name_fa":"رباط‌کریم","lat":35.4846,"lon":51.0827}
  ],

  "البرز": [
    {"id":106,"name_fa":"کرج","lat":35.8400,"lon":50.9391}
  ],

  "خراسان رضوی": [
    {"id":102,"name_fa":"مشهد","lat":36.2605,"lon":59.6168},
    {"id":152,"name_fa":"سبزوار","lat":36.2126,"lon":57.6819},
    {"id":153,"name_fa":"نیشابور","lat":36.2146,"lon":58.7961},
    {"id":154,"name_fa":"تربت حیدریه","lat":35.2740,"lon":59.2195},
    {"id":155,"name_fa":"قوچان","lat":37.1060,"lon":58.5095},
    {"id":156,"name_fa":"کاشمر","lat":35.2383,"lon":58.4650},
    {"id":157,"name_fa":"تربت جام","lat":35.2436,"lon":60.6225}
  ],

  "اصفهان": [
    {"id":103,"name_fa":"اصفهان","lat":32.6539,"lon":51.6660},
    {"id":139,"name_fa":"کاشان","lat":33.9850,"lon":51.4090},
    {"id":140,"name_fa":"نجف‌آباد","lat":32.6324,"lon":51.3668},
    {"id":141,"name_fa":"خمینی‌شهر","lat":32.7002,"lon":51.5210}
  ],

  "فارس": [
    {"id":104,"name_fa":"شیراز","lat":29.5918,"lon":52.5837},
    {"id":180,"name_fa":"مرودشت","lat":29.8742,"lon":52.8020},
    {"id":181,"name_fa":"کازرون","lat":29.6196,"lon":51.6542},
    {"id":182,"name_fa":"فسا","lat":28.9383,"lon":53.6482},
    {"id":183,"name_fa":"جهرم","lat":28.5006,"lon":53.5600},
    {"id":184,"name_fa":"لار","lat":27.6810,"lon":54.3400},
    {"id":185,"name_fa":"داراب","lat":28.7519,"lon":54.5449},
    {"id":186,"name_fa":"آباده","lat":31.1608,"lon":52.6506}
  ],

  "آذربایجان شرقی": [
    {"id":105,"name_fa":"تبریز","lat":38.0962,"lon":46.2738}
  ],

  "خوزستان": [
    {"id":107,"name_fa":"اهواز","lat":31.3183,"lon":48.6706},
    {"id":158,"name_fa":"دزفول","lat":32.3831,"lon":48.4019},
    {"id":159,"name_fa":"آبادان","lat":30.3473,"lon":48.2934},
    {"id":160,"name_fa":"خرمشهر","lat":30.4408,"lon":48.1843},
    {"id":161,"name_fa":"بهبهان","lat":30.5959,"lon":50.2417},
    {"id":162,"name_fa":"مسجدسلیمان","lat":31.9364,"lon":49.3039},
    {"id":163,"name_fa":"اندیمشک","lat":32.4600,"lon":48.3590},
    {"id":164,"name_fa":"شوشتر","lat":32.0490,"lon":48.8560},
    {"id":165,"name_fa":"شوش","lat":32.1942,"lon":48.2436},
    {"id":166,"name_fa":"ماهشهر","lat":30.5563,"lon":49.1885},
    {"id":167,"name_fa":"بندر امام خمینی","lat":30.4251,"lon":49.0719}
  ],

  "قم": [
    {"id":108,"name_fa":"قم","lat":34.6416,"lon":50.8746}
  ],

  "گیلان": [
    {"id":109,"name_fa":"رشت","lat":37.2808,"lon":49.5832},
    {"id":148,"name_fa":"لاهیجان","lat":37.2030,"lon":50.0083},
    {"id":149,"name_fa":"بندر انزلی","lat":37.4727,"lon":49.4587},
    {"id":150,"name_fa":"آستارا","lat":38.4297,"lon":48.8720},
    {"id":151,"name_fa":"تالش","lat":37.8000,"lon":48.9000}
  ],

  "کرمان": [
    {"id":110,"name_fa":"کرمان","lat":30.2839,"lon":57.0834},
    {"id":174,"name_fa":"رفسنجان","lat":30.4067,"lon":55.9939},
    {"id":175,"name_fa":"سیرجان","lat":29.4520,"lon":55.6802},
    {"id":176,"name_fa":"جیرفت","lat":28.6751,"lon":57.7354},
    {"id":177,"name_fa":"بم","lat":29.1060,"lon":58.3570},
    {"id":178,"name_fa":"زرند","lat":30.8127,"lon":56.5630},
    {"id":179,"name_fa":"شهربابک","lat":30.1175,"lon":55.1186}
  ],

  "کرمانشاه": [
    {"id":111,"name_fa":"کرمانشاه","lat":34.3277,"lon":47.0778}
  ],

  "آذربایجان غربی": [
    {"id":112,"name_fa":"ارومیه","lat":37.5527,"lon":45.0760}
  ],

  "هرمزگان": [
    {"id":113,"name_fa":"بندرعباس","lat":27.1832,"lon":56.2666}
  ],

  "مرکزی": [
    {"id":114,"name_fa":"اراک","lat":34.0944,"lon":49.7013},
    {"id":138,"name_fa":"ساوه","lat":35.0213,"lon":50.3566}
  ],

  "قزوین": [
    {"id":115,"name_fa":"قزوین","lat":36.2730,"lon":50.0041}
  ],

  "کردستان": [
    {"id":116,"name_fa":"سنندج","lat":35.3093,"lon":46.9990}
  ],

  "زنجان": [
    {"id":117,"name_fa":"زنجان","lat":36.6765,"lon":48.4963}
  ],

  "همدان": [
    {"id":118,"name_fa":"همدان","lat":34.7983,"lon":48.5146},
    {"id":171,"name_fa":"ملایر","lat":34.2969,"lon":48.8235},
    {"id":172,"name_fa":"نهاوند","lat":34.1885,"lon":48.3705},
    {"id":173,"name_fa":"تویسرکان","lat":34.5488,"lon":48.4460}
  ],

  "لرستان": [
    {"id":119,"name_fa":"خرم‌آباد","lat":33.4878,"lon":48.3558},
    {"id":168,"name_fa":"بروجرد","lat":33.8953,"lon":48.7516},
    {"id":169,"name_fa":"دورود","lat":33.4926,"lon":49.0591},
    {"id":170,"name_fa":"الیگودرز","lat":33.4050,"lon":49.6919}
  ],

  "مازندران": [
    {"id":120,"name_fa":"ساری","lat":36.5633,"lon":53.0601},
    {"id":142,"name_fa":"آمل","lat":36.4696,"lon":52.3547},
    {"id":143,"name_fa":"بابل","lat":36.5459,"lon":52.6780},
    {"id":144,"name_fa":"قائم‌شهر","lat":36.4649,"lon":52.8685},
    {"id":145,"name_fa":"نوشهر","lat":36.6489,"lon":51.4962},
    {"id":146,"name_fa":"چالوس","lat":36.6560,"lon":51.4204},
    {"id":147,"name_fa":"تنکابن","lat":36.8153,"lon":50.8738}
  ],

  "گلستان": [
    {"id":121,"name_fa":"گرگان","lat":36.8427,"lon":54.4336},
    {"id":197,"name_fa":"گنبد کاووس","lat":37.2516,"lon":55.1672},
    {"id":198,"name_fa":"علی‌آباد کتول","lat":36.9111,"lon":54.8667}
  ],

  "بوشهر": [
    {"id":122,"name_fa":"بوشهر","lat":28.9220,"lon":50.8203}
  ],

  "کهگیلویه و بویراحمد": [
    {"id":123,"name_fa":"یاسوج","lat":30.6684,"lon":51.5876},
    {"id":187,"name_fa":"گچساران","lat":30.3506,"lon":50.7996},
    {"id":188,"name_fa":"دهدشت","lat":30.7948,"lon":50.5640}
  ],

  "چهارمحال و بختیاری": [
    {"id":124,"name_fa":"شهرکرد","lat":32.3269,"lon":50.8645}
  ],

  "خراسان جنوبی": [
    {"id":125,"name_fa":"بیرجند","lat":32.8663,"lon":59.2211},
    {"id":194,"name_fa":"طبس","lat":33.5959,"lon":56.9244},
    {"id":195,"name_fa":"قائن","lat":33.7264,"lon":59.1844},
    {"id":196,"name_fa":"فردوس","lat":34.0186,"lon":58.1725}
  ],

  "خراسان شمالی": [
    {"id":126,"name_fa":"بجنورد","lat":37.4747,"lon":57.3290}
  ],

  "ایلام": [
    {"id":127,"name_fa":"ایلام","lat":33.6376,"lon":46.4227}
  ],

  "سمنان": [
    {"id":128,"name_fa":"سمنان","lat":35.5723,"lon":53.3973},
    {"id":199,"name_fa":"شاهرود","lat":36.4182,"lon":54.9763},
    {"id":200,"name_fa":"دامغان","lat":36.1679,"lon":54.3429},
    {"id":201,"name_fa":"گرمسار","lat":35.2180,"lon":52.3401}
  ],

  "اردبیل": [
    {"id":129,"name_fa":"اردبیل","lat":38.2465,"lon":48.2950}
  ],

  "یزد": [
    {"id":130,"name_fa":"یزد","lat":31.8974,"lon":54.3569}
  ],

  "سیستان و بلوچستان": [
    {"id":189,"name_fa":"ایرانشهر","lat":27.2025,"lon":60.6848},
    {"id":190,"name_fa":"چابهار","lat":25.2919,"lon":60.6430},
    {"id":191,"name_fa":"زابل","lat":31.0319,"lon":61.4949},
    {"id":192,"name_fa":"سراوان","lat":27.3710,"lon":62.3338},
    {"id":193,"name_fa":"خاش","lat":28.2211,"lon":61.2140}
  ]
}
